[
  {
    "place": "Санкт-Петербург",
    "modern_name": "Санкт-Петербург",
    "country": "Россия",
    "lat": 59.9606739,
    "long": 30.1586551,
    "key": "санкт-петербург"
  },
  {
    "place": "Чёрная речка",
    "modern_name": "р-н «Чёрная Речка», СПб",
    "country": "Россия",
    "lat": 59.9886,
    "long": 30.2948,
    "key": "чёрная_речка"
  },
  {
    "place": "Москва",
    "modern_name": "Москва",
    "country": "Россия",
    "lat": 55.625578,
    "long": 37.6063916,
    "key": "москва"
  },
  {
    "place": "Киев",
    "modern_name": "Киев / Kyiv",
    "country": "Украина",
    "lat": 50.4485578,
    "long": 30.5271623,
    "key": "киев"
  },
  {
    "place": "Лысые Горы",
    "modern_name": "условно ≈ Дорогобужский р-н",
    "country": "Россия",
    "lat": 54.86,
    "long": 32.05,
    "key": "лысые_горы"
  },
  {
    "place": "Отрадное",
    "modern_name": "дер. Отрадное, Тульская обл.",
    "country": "Россия",
    "lat": 54.2,
    "long": 37.6,
    "key": "отрадное"
  },
  {
    "place": "Богучарово",
    "modern_name": "с. Богучарово, Тульская обл.",
    "country": "Россиия",
    "lat": 54.4194386,
    "long": 37.1367855,
    "key": "богучарово"
  },
  {
    "place": "Ярославль",
    "modern_name": "Ярославль",
    "country": "Россия",
    "lat": 57.6508432,
    "long": 39.8718634,
    "key": "ярославль"
  },
  {
    "place": "Смоленск",
    "modern_name": "Смоленск",
    "country": "Россия",
    "lat": 54.7814057,
    "long": 32.0461261,
    "key": "смоленск"
  },
  {
    "place": "Вязьма",
    "modern_name": "Вязьма",
    "country": "Россия",
    "lat": 55.2103563,
    "long": 34.2995187,
    "key": "вязьма"
  },
  {
    "place": "Орёл",
    "modern_name": "Орёл",
    "country": "Россия",
    "lat": 52.9680171,
    "long": 36.0994994,
    "key": "орёл"
  },
  {
    "place": "Бородино",
    "modern_name": "д. Бородино, Моск. обл.",
    "country": "Россия",
    "lat": 55.529,
    "long": 35.8097,
    "key": "бородино"
  },
  {
    "place": "Царёво-Займище",
    "modern_name": "д. Царёво-Займище, Смол. обл.",
    "country": "Россия",
    "lat": 55.0683,
    "long": 34.9895,
    "key": "царёво-займище"
  },
  {
    "place": "Фили",
    "modern_name": "р-н Фили, Москва",
    "country": "Россия",
    "lat": 55.744,
    "long": 37.506,
    "key": "фили"
  },
  {
    "place": "Тарутино",
    "modern_name": "с. Тарутино, Калужская обл.",
    "country": "Россия",
    "lat": 55.1207304,
    "long": 36.9419237,
    "key": "тарутино"
  },
  {
    "place": "Малоярославец",
    "modern_name": "Малоярославец",
    "country": "Россия",
    "lat": 55.012181,
    "long": 36.4590246,
    "key": "малоярославец"
  },
  {
    "place": "Дрисса",
    "modern_name": "Верхнедвинск",
    "country": "Беларусь",
    "lat": 55.769959,
    "long": 27.9323556,
    "key": "дрисса"
  },
  {
    "place": "Литва",
    "modern_name": "Вильнюс",
    "country": "Литва",
    "lat": 54.6870458,
    "long": 25.2829111,
    "key": "литва"
  },
  {
    "place": "Белоруссия",
    "modern_name": "Минск",
    "country": "Беларусь",
    "lat": 53.9024716,
    "long": 27.5618225,
    "key": "белоруссия"
  },
  {
    "place": "Березина",
    "modern_name": "дер. Студянка, Минская обл.",
    "country": "Беларусь",
    "lat": 54.384,
    "long": 28.987,
    "key": "березина"
  },
  {
    "place": "Мценск",
    "modern_name": "Мценск, Орловская обл.",
    "country": "Россиия",
    "lat": 53.278984,
    "long": 36.576077,
    "key": "мценск"
  },
  {
    "place": "Браунау",
    "modern_name": "Braunau am Inn",
    "country": "Австрия",
    "lat": 48.253136,
    "long": 13.039506,
    "key": "браунау"
  },
  {
    "place": "Шёнграбен",
    "modern_name": "Schöngrabern",
    "country": "Австрия",
    "lat": 48.6018577,
    "long": 16.0646855,
    "key": "шёнграбен"
  },
  {
    "place": "Аустерлиц",
    "modern_name": "Slavkov u Brna",
    "country": "Чехия",
    "lat": 49.1535759,
    "long": 16.8763606,
    "key": "аустерлиц"
  },
  {
    "place": "Брюнн",
    "modern_name": "Brno",
    "country": "Чехия",
    "lat": 49.1922443,
    "long": 16.6113382,
    "key": "брюнн"
  },
  {
    "place": "Бухарест",
    "modern_name": "București",
    "country": "Румыния",
    "lat": 44.4361414,
    "long": 26.1027202,
    "key": "бухарест"
  },
  {
    "place": "Вильно",
    "modern_name": "Вильнюс",
    "country": "Литва",
    "lat": 54.6870458,
    "long": 25.2829111,
    "key": "вильно"
  },
  {
    "place": "Эрфурт",
    "modern_name": "Erfurt",
    "country": "Германия",
    "lat": 50.9777974,
    "long": 11.0287364,
    "key": "эрфурт"
  },
  {
    "place": "Вена",
    "modern_name": "Wien",
    "country": "Австрия",
    "lat": 48.2083537,
    "long": 16.3725042,
    "key": "вена"
  },
  {
    "place": "Париж",
    "modern_name": "Paris",
    "country": "Франция",
    "lat": 48.8588897,
    "long": 2.320041,
    "key": "париж"
  },
  {
    "place": "Фридланд",
    "modern_name": "Правдинск (бывш. Friedland)",
    "country": "Россия (Кал-обл)",
    "lat": 54.4446,
    "long": 21.0086,
    "key": "фридланд"
  },
  {
    "place": "Ajaccio (Корсика)",
    "modern_name": "Ajaccio",
    "country": "Франция",
    "lat": 41.9263991,
    "long": 8.7376029,
    "key": "ajaccio_корсика"
  },
  {
    "place": "Brienne (Франция)",
    "modern_name": "Brienne-le-Château",
    "country": "Франция",
    "lat": 48.3941801,
    "long": 4.5268522,
    "key": "brienne_франция"
  },
  {
    "place": "Paris (École Militaire)",
    "modern_name": "Paris, École Militaire",
    "country": "Франция",
    "lat": 48.8518484,
    "long": 2.3047565,
    "key": "paris_école_militaire"
  },
  {
    "place": "Toulon",
    "modern_name": "Toulon",
    "country": "Франция",
    "lat": 43.1257311,
    "long": 5.9304919,
    "key": "toulon"
  },
  {
    "place": "Nice",
    "modern_name": "Nice",
    "country": "Франция",
    "lat": 43.7009358,
    "long": 7.2683912,
    "key": "nice"
  },
  {
    "place": "Milan",
    "modern_name": "Milano",
    "country": "Италия",
    "lat": 45.4641943,
    "long": 9.1896346,
    "key": "milan"
  },
  {
    "place": "Cairo",
    "modern_name": "Cairo",
    "country": "Египет",
    "lat": 30.0443879,
    "long": 31.2357257,
    "key": "cairo"
  },
  {
    "place": "Египет",
    "modern_name": "Египет",
    "country": "Египет",
    "lat": 26.2540493,
    "long": 29.2675469,
    "key": "египет"
  },
  {
    "place": "Elba (Остров)",
    "modern_name": "Isola d'Elba",
    "country": "Италия",
    "lat": 42.7902379,
    "long": 10.3402239,
    "key": "elba_остров"
  },
  {
    "place": "Ватерлоо",
    "modern_name": "Waterloo",
    "country": "Бельгия",
    "lat": 50.7032863,
    "long": 4.4084276,
    "key": "ватерлоо"
  },
  {
    "place": "Сент-Елена",
    "modern_name": "Saint Helena",
    "country": "Святая Елена",
    "lat": -15.9654552,
    "long": -5.7025756,
    "key": "сент-елена"
  },
  {
    "place": "Paris (Нотр-Дам)",
    "modern_name": "Paris, Notre-Dame",
    "country": "Франция",
    "lat": 48.8529371,
    "long": 2.3500501,
    "key": "paris_нотр-дам"
  },
  {
    "place": "Paris (Лувр)",
    "modern_name": "Paris, Louvre",
    "country": "Франция",
    "lat": 48.8611473,
    "long": 2.3380277,
    "key": "paris_лувр"
  },
  {
    "place": "Петербург",
    "modern_name": "Петербург",
    "country": "Россия",
    "lat": 59.9606739,
    "long": 30.1586551,
    "key": "петербург"
  },
  {
    "place": "Австрия",
    "modern_name": "Австрия",
    "country": "Австрия",
    "lat": 47.59397,
    "long": 14.12456,
    "key": "австрия"
  }
]